{
  "venues": [
    {
      "name": "Bevi Seafood Co.",
      "phone": "5048855003",
      "yelp_id": "bevi-seafood-co-metairie",
      "distance": "2.12 mi",
      "picture": "http://s3-media3.fl.yelpcdn.com/bphoto/rOziJvXOsyoVE2C2KEfnLg/o.jpg",
      "yelp_picture": "http://s3-media3.fl.yelpcdn.com/bphoto/sPwR8NZ7_0zZdB5T0HBSIw/ms.jpg",
      "address": "4701 Airline Dr",
      "city": "Metairie",
      "state": "LA",
      "zip": "70001",
      "rating_url": "http://s3-media4.fl.yelpcdn.com/assets/2/www/img/9f83790ff7f6/ico/stars/v1/stars_large_4_half.png",
      "latitude": "29.975785240531",
      "longitude": "-90.1821944117546",
      "favorite": "false",
      "hours": "9:00am - 10:00pm",
      "closed": "Closed: Tuesday",
      "crawfish_boiled": "$3.50",
      "crawfish_live": "$3.00"
    },
    {
      "name": "Deanie's Seafood",
      "phone": "5048314141",
      "yelp_id": "deanies-seafood-metairie",
      "distance": "2.50 mi",
      "picture": "http://s3-media4.fl.yelpcdn.com/bphoto/wjFCPkYO0Lp7OjuulQsZfQ/o.jpg",
      "yelp_picture": "http://s3-media1.fl.yelpcdn.com/bphoto/08pha8W-CHPC0xbY_GxHkQ/ms.jpg",
      "address": "1713 Lake Ave",
      "city": "Metairie",
      "state": "LA",
      "zip": "70005",
      "rating_url": "http://s3-media3.fl.yelpcdn.com/assets/2/www/img/bd9b7a815d1b/ico/stars/v1/stars_large_3_half.png",
      "latitude": "30.0186596",
      "longitude": "-90.1229401",
      "favorite": "true",
      "hours": "9:00am - 10:00pm",
      "closed": "Closed: Tuesday",
      "crawfish_boiled": "$3.60",
      "crawfish_live": "$3.00"
    },
    {
      "name": "Don's Seafood",
      "phone": "5048891550",
      "yelp_id": "dons-seafood-metairie-2",
      "distance": "1.44 mi",
      "picture": "http://s3-media3.fl.yelpcdn.com/bphoto/QbN3DwAh8xJ4Op2U5mD4HQ/o.jpg",
      "yelp_picture": "http://s3-media2.fl.yelpcdn.com/bphoto/dqh1JxGnNIK-GMssi2cE-w/ms.jpg",
      "address": "4801 Veterans Memorial Blvd",
      "city": "Metairie",
      "state": "LA",
      "zip": "70006",
      "rating_url": "http://s3-media1.fl.yelpcdn.com/assets/2/www/img/e8b5b79d37ed/ico/stars/v1/stars_large_3.png",
      "latitude": "30.0059548829212",
      "longitude": "-90.1909128472198",
      "favorite": "true",
      "hours": "9:00am - 10:00pm",
      "closed": "Closed: Tuesday",
      "crawfish_boiled": "$3.75",
      "crawfish_live": "$3.00"
    },
    {
      "name": "Dennis' Seafood",
      "phone": "5048852209",
      "yelp_id": "dennisseafood-metairie",
      "distance": "9.1 mi",
      "picture": "http://s3-media4.fl.yelpcdn.com/bphoto/h_qnVDiLggBWSgRh70UevQ/o.jpg",
      "yelp_picture": "http://s3-media1.fl.yelpcdn.com/bphoto/DG88942Y6_R-xBnuUffmkg/ms.jpg",
      "address": "4428 Lorino St",
      "city": "Metairie",
      "state": "LA",
      "zip": "70006",
      "rating_url": "http://s3-media2.fl.yelpcdn.com/assets/2/www/img/ccf2b76faa2c/ico/stars/v1/stars_large_4.png",
      "latitude": "30.01752",
      "longitude": "-90.1876",
      "favorite": "false",
      "hours": "9:00am - 10:00pm",
      "closed": "Closed: Tuesday",
      "crawfish_boiled": "$4.00",
      "crawfish_live": "$3.00"
    },
    {
      "name": "Captain Sid's Seafood",
      "phone": "5048312840",
      "yelp_id": "captain-sids-seafood-metairie",
      "distance": "5.11 mi",
      "picture": "http://s3-media4.fl.yelpcdn.com/bphoto/7ktYeAd6qfxqZznZrSERlQ/o.jpg",
      "yelp_picture": "http://s3-media4.fl.yelpcdn.com/bphoto/RPBaYR54FajoGpbca4qrgw/ms.jpg",
      "address": "1700 Lake Ave",
      "city": "Metairie",
      "state": "LA",
      "zip": "70005",
      "rating_url": "http://s3-media2.fl.yelpcdn.com/assets/2/www/img/ccf2b76faa2c/ico/stars/v1/stars_large_4.png",
      "latitude": "30.0182499736547",
      "longitude": "-90.1232012361288",
      "favorite": "false",
      "hours": "9:00am - 10:00pm",
      "closed": "Closed: Tuesday",
      "crawfish_boiled": "$4.10",
      "crawfish_live": "$3.00"
    },
    {
      "name": "Acme Oyster House",
      "phone": "5043094056",
      "yelp_id": "acme-oyster-house-metairie",
      "distance": "0.64 mi",
      "picture": "http://s3-media4.fl.yelpcdn.com/bphoto/HmzeGInJKNPr_TULO1_nGQ/o.jpg",
      "yelp_picture": "http://s3-media1.fl.yelpcdn.com/bphoto/HmzeGInJKNPr_TULO1_nGQ/ms.jpg",
      "address": "3000 Veterans Memorial Blvd",
      "city": "Metairie",
      "state": "LA",
      "zip": "70002",
      "rating_url": "http://s3-media3.fl.yelpcdn.com/assets/2/www/img/bd9b7a815d1b/ico/stars/v1/stars_large_3_half.png",
      "latitude": "30.0026073635696",
      "longitude": "-90.1530120372772",
      "favorite": "false",
      "hours": "9:00am - 10:00pm",
      "closed": "Closed: Tuesday",
      "crawfish_boiled": "$4.50",
      "crawfish_live": "$3.00"
    },
    {
      "name": "Drago's Seafood Restaurant",
      "phone": "5048889254",
      "yelp_id": "dragos-seafood-restaurant-metairie",
      "distance": "1.12 mi",
      "picture": "http://s3-media1.fl.yelpcdn.com/bphoto/KiXtp67UD6oiR4VYD2PBQw/o.jpg",
      "yelp_picture": "http://s3-media3.fl.yelpcdn.com/bphoto/yRUOrTpxWwwLvv3NaDRD5w/ms.jpg",
      "address": "3232 N Arnoult Rd",
      "city": "Metairie",
      "state": "LA",
      "zip": "70002",
      "rating_url": "http://s3-media3.fl.yelpcdn.com/assets/2/www/img/bd9b7a815d1b/ico/stars/v1/stars_large_3_half.png",
      "latitude": "30.0090359151363",
      "longitude": "-90.1604953408241",
      "favorite": "false",
      "hours": "9:00am - 10:00pm",
      "closed": "Closed: Tuesday",
      "crawfish_boiled": "$5.50",
      "crawfish_live": "$5.00"
    },
    {
      "name": "The Galley",
      "phone": "5048320955",
      "yelp_id": "the-galley-metairie-3",
      "distance": "1.17 mi",
      "picture": "http://s3-media1.fl.yelpcdn.com/bphoto/-ypnlPs1wcs-I1H77BIleg/o.jpg",
      "yelp_picture": "http://s3-media4.fl.yelpcdn.com/bphoto/AFR8E39vMdglJc4igrEBLA/ms.jpg",
      "address": "2535 Metairie Rd",
      "city": "Metairie",
      "state": "LA",
      "zip": "70001",
      "rating_url": "http://s3-media2.fl.yelpcdn.com/assets/2/www/img/ccf2b76faa2c/ico/stars/v1/stars_large_4.png",
      "latitude": "29.9812393",
      "longitude": "-90.1511765",
      "favorite": "false",
      "hours": "9:00am - 10:00pm",
      "closed": "Closed: Tuesday",
      "crawfish_boiled": "$7.50",
      "crawfish_live": "$6.00"
    },
    {
      "name": "Bobby's Seafood",
      "phone": "5047382104",
      "yelp_id": "bobbys-seafood-new-orleans",
      "distance": "3.25 mi",
      "picture": "http://s3-media4.fl.yelpcdn.com/bphoto/jgXP0R7aVpg0dehz2UMrXw/o.jpg",
      "yelp_picture": "http://s3-media3.fl.yelpcdn.com/bphoto/h71mJQEwAdZTQiNmXG43cQ/ms.jpg",
      "address": "9013 Jefferson Hwy",
      "city": "New Orleans",
      "state": "LA",
      "zip": "70123",
      "rating_url": "http://s3-media4.fl.yelpcdn.com/assets/2/www/img/9f83790ff7f6/ico/stars/v1/stars_large_4_half.png",
      "latitude": "29.9471110850573",
      "longitude": "-90.2135018259287",
      "favorite": "false",
      "hours": "9:00am - 10:00pm",
      "closed": "Closed: Tuesday",
      "crawfish_boiled": "$4.50",
      "crawfish_live": "$4.00"
    },
    {
      "name": "Superior Seafood & Oyster Bar",
      "phone": "5042933474",
      "yelp_id": "superior-seafood-and-oyster-bar-new-orleans",
      "distance": "0.5 mi",
      "picture": "http://s3-media3.fl.yelpcdn.com/bphoto/pD_UjM1DJNB4vvd8Ko5jew/o.jpg",
      "yelp_picture": "http://s3-media3.fl.yelpcdn.com/bphoto/DzBy52gNwxDCKNVwyOqzSg/ms.jpg",
      "address": "4338 St. Charles Ave",
      "city": "New Orleans",
      "state": "LA",
      "zip": "70115",
      "rating_url": "http://s3-media2.fl.yelpcdn.com/assets/2/www/img/ccf2b76faa2c/ico/stars/v1/stars_large_4.png",
      "latitude": "29.92623550149",
      "longitude": "-90.1016806155892",
      "favorite": "false",
      "hours": "9:00am - 10:00pm",
      "closed": "Closed: Tuesday",
      "crawfish_boiled": "$6.50",
      "crawfish_live": ""
    },
    // NEED TO ADD SELECTED YELP PICTURES V V V V V V V V
    {
      "name": "Perino's Boiling Pot",
      "phone": "5043405560",
      "yelp_id": "perinos-boiling-pot-harvey",
      "distance": "1.52 mi",
      "picture": "http://s3-media4.fl.yelpcdn.com/bphoto/uX5QsemS9BaOWPzWCEzWpQ/o.jpg",
      "yelp_picture": "http://s3-media4.fl.yelpcdn.com/bphoto/wSEY_ESE0Con19_CbOR1VQ/ms.jpg",
      "address": "3754 W Bank Expy",
      "city": "Harvey",
      "state": "LA",
      "zip": "70058",
      "rating_url": "http://s3-media2.fl.yelpcdn.com/assets/2/www/img/ccf2b76faa2c/ico/stars/v1/stars_large_4.png",
      "latitude": "29.8954201",
      "longitude": "-90.0883713",
      "favorite": "false",
      "hours": "9:00am - 10:00pm",
      "closed": "Closed: Tuesday",
      "crawfish_boiled": "$5.50",
      "crawfish_live": "4.00"
    },
    {
      "name": "Cooter Brown's Tavern & Oyster Bar",
      "phone": "5048669104",
      "yelp_id": "cooter-browns-tavern-and-oyster-bar-new-orleans",
      "distance": "2.82 mi",
      "picture": "http://s3-media4.fl.yelpcdn.com/bphoto/uX5QsemS9BaOWPzWCEzWpQ/o.jpg",
      "yelp_picture": "http://s3-media2.fl.yelpcdn.com/bphoto/rtCRlIgyrp0V_RhI7JIV2Q/ms.jpg",
      "address": "509 S Carrollton Ave",
      "city": "New Orleans",
      "state": "LA",
      "zip": "70118",
      "rating_url": "http://s3-media3.fl.yelpcdn.com/assets/2/www/img/bd9b7a815d1b/ico/stars/v1/stars_large_3_half.png",
      "latitude": "29.94237",
      "longitude": "-90.13449",
      "favorite": "false",
      "hours": "9:00am - 10:00pm",
      "closed": "Closed: Tuesday",
      "crawfish_boiled": "$5.00",
      "crawfish_live": ""
    },
    {
      "name": "Castnet Seafood",
      "phone": "5042448446",
      "yelp_id": "castnet-seafood-new-orleans",
      "distance": "3 mi",
      "picture": "http://s3-media4.fl.yelpcdn.com/bphoto/uX5QsemS9BaOWPzWCEzWpQ/o.jpg",
      "yelp_picture": "http://s3-media2.fl.yelpcdn.com/bphoto/MazmMSofWpa-0Xp290IROA/ms.jpg",
      "address": "10826 Hayne Blvd",
      "city": "New Orleans",
      "state": "LA",
      "zip": "70127",
      "rating_url": "http://s3-media4.fl.yelpcdn.com/assets/2/www/img/9f83790ff7f6/ico/stars/v1/stars_large_4_half.png",
      "latitude": "30.0516376495361",
      "longitude": "-89.9789047241211",
      "favorite": "false",
      "hours": "9:00am - 10:00pm",
      "closed": "Closed: Tuesday",
      "crawfish_boiled": "$4.10",
      "crawfish_live": "3.55"
    },
    {
      "name": "Cajun Brothers",
      "phone": "5042448446",
      "yelp_id": "cajun-brothers-new-orleans",
      "distance": "1.2 mi",
      "picture": "http://s3-media4.fl.yelpcdn.com/bphoto/uX5QsemS9BaOWPzWCEzWpQ/o.jpg",
      "yelp_picture": "http://s3-media2.fl.yelpcdn.com/bphoto/Ypv3Xj95n_C_ZIJpiDEAGA/ms.jpg",
      "address": "236 N Carrollton Ave",
      "city": "New Orleans",
      "state": "LA",
      "zip": "70119",
      "rating_url": "http://s3-media1.fl.yelpcdn.com/assets/2/www/img/e8b5b79d37ed/ico/stars/v1/stars_large_3.png",
      "latitude": "29.9757652282715",
      "longitude": "-90.0987396240234",
      "favorite": "false",
      "hours": "9:00am - 10:00pm",
      "closed": "Closed: Tuesday",
      "crawfish_boiled": "$4.50",
      "crawfish_live": "3.25"
    },
    {
      "name": "Cajun Seafood",
      "phone": "5048214722",
      "yelp_id": "cajun-seafood-new-orleans",
      "distance": "1.27 mi",
      "picture": "http://s3-media4.fl.yelpcdn.com/bphoto/uX5QsemS9BaOWPzWCEzWpQ/o.jpg",
      "yelp_picture": "http://s3-media1.fl.yelpcdn.com/bphoto/8A6bewLA7_1xIPLQsQ3lMA/ms.jpg",
      "address": "2730 S Broad St",
      "city": "New Orleans",
      "state": "LA",
      "zip": "70125",
      "rating_url": "http://s3-media4.fl.yelpcdn.com/assets/2/www/img/9f83790ff7f6/ico/stars/v1/stars_large_4_half.png",
      "latitude": "29.9508116528998",
      "longitude": "-90.1003911682485",
      "favorite": "false",
      "hours": "9:00am - 10:00pm",
      "closed": "Closed: Tuesday",
      "crawfish_boiled": "$5.50",
      "crawfish_live": "4.25"
    },
    {
      "name": "Frankie & Johnny's Restaurant",
      "phone": "5042431234",
      "yelp_id": "frankie-and-johnnys-restaurant-new-orleans",
      "distance": "3.62 mi",
      "picture": "http://s3-media4.fl.yelpcdn.com/bphoto/uX5QsemS9BaOWPzWCEzWpQ/o.jpg",
      "yelp_picture": "http://s3-media1.fl.yelpcdn.com/bphoto/8A6bewLA7_1xIPLQsQ3lMA/ms.jpg",
      "address": "321 Arabella St",
      "city": "New Orleans",
      "state": "LA",
      "zip": "70115",
      "rating_url": "http://s3-media3.fl.yelpcdn.com/assets/2/www/img/bd9b7a815d1b/ico/stars/v1/stars_large_3_half.png",
      "latitude": "29.9169997",
      "longitude": "-90.1190233",
      "favorite": "false",
      "hours": "9:00am - 10:00pm",
      "closed": "Closed: Tuesday",
      "crawfish_boiled": "$6.50",
      "crawfish_live": ""
    },
    {
      "name": "Bayou Beer Garden",
      "phone": "5043029357",
      "yelp_id": "bayou-beer-garden-new-orleans",
      "distance": "5.2 mi",
      "picture": "http://s3-media4.fl.yelpcdn.com/bphoto/uX5QsemS9BaOWPzWCEzWpQ/o.jpg",
      "yelp_picture": "http://s3-media3.fl.yelpcdn.com/bphoto/Jv4e8p0P7pIfWr9m3CjXSA/ms.jpg",
      "address": "326 N Jefferson Davis Pkwy",
      "city": "New Orleans",
      "state": "LA",
      "zip": "70119",
      "rating_url": "http://s3-media2.fl.yelpcdn.com/assets/2/www/img/ccf2b76faa2c/ico/stars/v1/stars_large_4.png",
      "latitude": "29.971954",
      "longitude": "-90.091568",
      "favorite": "false",
      "hours": "9:00am - 10:00pm",
      "closed": "Closed: Tuesday",
      "crawfish_boiled": "$5.75",
      "crawfish_live": ""
    },
    {
      "name": "Mid-City Yacht Club",
      "phone": "5044832517",
      "yelp_id": "mid-city-yacht-club-new-orleans",
      "distance": "3.12 mi",
      "picture": "http://s3-media4.fl.yelpcdn.com/bphoto/uX5QsemS9BaOWPzWCEzWpQ/o.jpg",
      "yelp_picture": "http://s3-media3.fl.yelpcdn.com/bphoto/KGZeJAXTOdUJ3S3iV_OoDg/ms.jpg",
      "address": "440 S St Patrick St",
      "city": "New Orleans",
      "state": "LA",
      "zip": "70119",
      "rating_url": "http://s3-media2.fl.yelpcdn.com/assets/2/www/img/ccf2b76faa2c/ico/stars/v1/stars_large_4.png",
      "latitude": "29.9752441466139",
      "longitude": "-90.1097293604797",
      "favorite": "false",
      "hours": "9:00am - 10:00pm",
      "closed": "Closed: Tuesday",
      "crawfish_boiled": "$5.75",
      "crawfish_live": ""
    },
    {
      "name": "Broadview Seafood",
      "phone": "5049443001",
      "yelp_id": "broadview-seafood-new-orleans",
      "distance": "2.22 mi",
      "picture": "http://s3-media4.fl.yelpcdn.com/bphoto/uX5QsemS9BaOWPzWCEzWpQ/o.jpg",
      "yelp_picture": "http://s3-media3.fl.yelpcdn.com/bphoto/XAcFWQx2yiZkoc1_z_pJ-A/ms.jpg",
      "address": "1468 N Broad St",
      "city": "New Orleans",
      "state": "LA",
      "zip": "70119",
      "rating_url": "http://s3-media4.fl.yelpcdn.com/assets/2/www/img/9f83790ff7f6/ico/stars/v1/stars_large_4_half.png",
      "latitude": "29.9773483276367",
      "longitude": "-90.0767364501953",
      "favorite": "false",
      "hours": "9:00am - 10:00pm",
      "closed": "Closed: Tuesday",
      "crawfish_boiled": "$4.00",
      "crawfish_live": "3.00"
    },
    {
      "name": "Sal's Seafood",
      "phone": "5043418112",
      "yelp_id": "sals-seafood-marrero",
      "distance": "3.11 mi",
      "picture": "http://s3-media4.fl.yelpcdn.com/bphoto/uX5QsemS9BaOWPzWCEzWpQ/o.jpg",
      "yelp_picture": "http://s3-media4.fl.yelpcdn.com/bphoto/MeviRxaI1FGdLp0qDQDOPw/ms.jpg",
      "address": "1512 Barataria Blvd",
      "city": "Marrero",
      "state": "LA",
      "zip": "70072",
      "rating_url": "http://s3-media2.fl.yelpcdn.com/assets/2/www/img/ccf2b76faa2c/ico/stars/v1/stars_large_4.png",
      "latitude": "29.8853515475723",
      "longitude": "-90.0996286850602",
      "favorite": "false",
      "hours": "9:00am - 10:00pm",
      "closed": "Closed: Tuesday",
      "crawfish_boiled": "$4.20",
      "crawfish_live": "3.29"
    },

  ]
}